base_week: 0

events:
  # ═══════════════════════════════════════════════════════════
  #  JANUARY 2026
  # ═══════════════════════════════════════════════════════════
  - id: "eu-evt-001"
    calendar_id: "sse34geighk20sbt1kuo12r4bg@group.calendar.google.com"
    title: "New Year Salsa Bash – Paris"
    description: "Kick off the year with salsa cubana at Studio Latina."
    location: "Studio Latina, 15 Rue de la Roquette, Paris, France"
    latitude: 48.8534
    longitude: 2.3741
    start: "w-14 Sat 21:00"
    end: "w-14 Sun 02:00"

  - id: "eu-evt-002"
    calendar_id: "evrpds0rvercm3ugjpgjia2kds@group.calendar.google.com"
    title: "Winter Salsa Festival – Budapest"
    description: "3-day festival with international instructors. Thermal bath party included!"
    location: "Akvárium Klub, Erzsébet tér 12, Budapest, Hungary"
    latitude: 47.4979
    longitude: 19.0510
    start: "w-13 Fri 18:00"
    end: "w-13 Sun 23:00"

  - id: "eu-evt-003"
    calendar_id: "sse34geighk20sbt1kuo12r4bg@group.calendar.google.com"
    title: "Salsa Fuego – London"
    description: "Two floors of dancing in Soho. Guest DJs from Cuba & Colombia."
    location: "Bar Salsa, 96 Charing Cross Rd, London, UK"
    latitude: 51.5142
    longitude: -0.1300
    start: "w-12 Sat 21:00"
    end: "w-12 Sun 03:00"

  # ═══════════════════════════════════════════════════════════
  #  FEBRUARY 2026
  # ═══════════════════════════════════════════════════════════
  - id: "eu-evt-004"
    calendar_id: "evrpds0rvercm3ugjpgjia2kds@group.calendar.google.com"
    title: "Valentine Salsa Night – Rome"
    description: "Romantic salsa evening at sunset near the Tiber."
    location: "Terrazza Trastevere, Piazza Trilussa, Rome, Italy"
    latitude: 41.8892
    longitude: 12.4691
    start: "w-9 Sat 19:00"
    end: "w-9 Sat 23:30"

  - id: "eu-evt-005"
    calendar_id: "sse34geighk20sbt1kuo12r4bg@group.calendar.google.com"
    title: "Salsa Vibes Berlin"
    description: "Berlin's biggest monthly salsa gathering. 3 rooms: salsa, bachata, kizomba."
    location: "Tanzhaus Berlin, Friedrichstraße 112, Berlin, Germany"
    latitude: 52.5244
    longitude: 13.3884
    start: "w-8 Sat 21:00"
    end: "w-8 Sun 03:00"

  - id: "eu-evt-006"
    calendar_id: "sse34geighk20sbt1kuo12r4bg@group.calendar.google.com"
    title: "Carnaval Salsa – Lisbon"
    description: "Carnival-themed party with samba & salsa fusion. Costumes encouraged!"
    location: "Centro Cultural de Belém, Praça do Império, Lisbon, Portugal"
    latitude: 38.6960
    longitude: -9.2092
    start: "w-7 Sat 22:00"
    end: "w-7 Sun 04:00"

  # ═══════════════════════════════════════════════════════════
  #  MARCH 2026
  # ═══════════════════════════════════════════════════════════
  - id: "eu-evt-007"
    calendar_id: "evrpds0rvercm3ugjpgjia2kds@group.calendar.google.com"
    title: "Spring Salsa Workshop – Athens"
    description: "Rooftop salsa workshop with a view of the Parthenon."
    location: "Cine Paris Rooftop, Kidathineon 22, Plaka, Athens, Greece"
    latitude: 37.9720
    longitude: 23.7290
    start: "w-6 Sat 14:00"
    end: "w-6 Sat 18:00"

  - id: "eu-evt-008"
    calendar_id: "sse34geighk20sbt1kuo12r4bg@group.calendar.google.com"
    title: "Salsa Cubana Party – Barcelona"
    description: "Timba & casino all night on the beach. Live band Havana Sound System."
    location: "Mojito Club, Carrer del Rosselló 217, Barcelona, Spain"
    latitude: 41.3925
    longitude: 2.1568
    start: "w-5 Sat 22:00"
    end: "w-5 Sun 03:00"

  - id: "eu-evt-009"
    calendar_id: "evrpds0rvercm3ugjpgjia2kds@group.calendar.google.com"
    title: "Beginner Salsa Bootcamp – Paris"
    description: "2-day intro to salsa On1 & On2. No partner needed."
    location: "Centre de Danse du Marais, 41 Rue du Temple, Paris, France"
    latitude: 48.8600
    longitude: 2.3530
    start: "w-4 Sat 10:00"
    end: "w-4 Sun 17:00"

  - id: "eu-evt-010"
    calendar_id: "sse34geighk20sbt1kuo12r4bg@group.calendar.google.com"
    title: "Latin Night Amsterdam"
    description: "Salsa, bachata & merengue in the canal district. Free class at 21:00."
    location: "Club Salsa, Leidseplein 12, Amsterdam, Netherlands"
    latitude: 52.3640
    longitude: 4.8828
    start: "w-3 Sat 21:00"
    end: "w-3 Sun 02:30"

  # ═══════════════════════════════════════════════════════════
  #  APRIL 2026
  # ═══════════════════════════════════════════════════════════
  - id: "eu-evt-011"
    calendar_id: "sse34geighk20sbt1kuo12r4bg@group.calendar.google.com"
    title: "Salsa Social Night – Paris"
    description: "Weekly social at the heart of Paris. All levels welcome. DJ set + live percussion."
    location: "Studio Latina, 15 Rue de la Roquette, Paris, France"
    latitude: 48.8534
    longitude: 2.3741
    start: "w0 Fri 20:30"
    end: "w0 Sat 01:00"

  - id: "eu-evt-012"
    calendar_id: "evrpds0rvercm3ugjpgjia2kds@group.calendar.google.com"
    title: "Wien Salsa Congress"
    description: "Annual Vienna salsa congress. 4 days of workshops, shows, and parties."
    location: "Wiener Stadthalle, Roland-Rainer-Platz 1, Vienna, Austria"
    latitude: 48.2024
    longitude: 16.3310
    start: "w1 Thu 18:00"
    end: "w1 Sun 04:00"

  - id: "eu-evt-013"
    calendar_id: "sse34geighk20sbt1kuo12r4bg@group.calendar.google.com"
    title: "Salsa Under the Acropolis – Athens"
    description: "Rooftop salsa party with live band + DJ from Havana."
    location: "Cine Paris Rooftop, Kidathineon 22, Plaka, Athens, Greece"
    latitude: 37.9720
    longitude: 23.7290
    start: "w1 Wed 21:00"
    end: "w1 Thu 02:30"

  # ═══════════════════════════════════════════════════════════
  #  MAY 2026
  # ═══════════════════════════════════════════════════════════
  - id: "eu-evt-014"
    calendar_id: "sse34geighk20sbt1kuo12r4bg@group.calendar.google.com"
    title: "Salsa & Kizomba Festival – Lisbon"
    description: "3-day festival with international instructors. Workshops + pool party."
    location: "Centro Cultural de Belém, Praça do Império, Lisbon, Portugal"
    latitude: 38.6960
    longitude: -9.2092
    start: "w2 Fri 10:00"
    end: "w2 Sun 23:00"

  - id: "eu-evt-015"
    calendar_id: "evrpds0rvercm3ugjpgjia2kds@group.calendar.google.com"
    title: "Salsa en Praga"
    description: "Monthly salsa social in the Old Town. Taster class at 20:00."
    location: "SaSaZu, Bubenské nábřeží 306, Prague, Czech Republic"
    latitude: 50.1025
    longitude: 14.4400
    start: "w3 Sat 20:00"
    end: "w3 Sun 01:00"

  - id: "eu-evt-016"
    calendar_id: "sse34geighk20sbt1kuo12r4bg@group.calendar.google.com"
    title: "Salsa al Lago – Milan"
    description: "Open-air salsa by the Navigli canals. Aperitivo + dancing."
    location: "Navigli District, Alzaia Naviglio Grande, Milan, Italy"
    latitude: 45.4500
    longitude: 9.1700
    start: "w5 Sat 19:30"
    end: "w5 Sat 23:30"

  # ═══════════════════════════════════════════════════════════
  #  JUNE 2026
  # ═══════════════════════════════════════════════════════════
  - id: "eu-evt-017"
    calendar_id: "sse34geighk20sbt1kuo12r4bg@group.calendar.google.com"
    title: "Midsommar Salsa – Stockholm"
    description: "Scandinavia's hottest salsa night. Warm up the Nordic summer."
    location: "Debaser Strand, Hornstulls Strand 4, Stockholm, Sweden"
    latitude: 59.3170
    longitude: 18.0340
    start: "w9 Sat 20:00"
    end: "w9 Sun 02:00"

  - id: "eu-evt-018"
    calendar_id: "evrpds0rvercm3ugjpgjia2kds@group.calendar.google.com"
    title: "Fête de la Musique Salsa – Paris"
    description: "Free outdoor salsa in Place de la République. All-night dancing!"
    location: "Place de la République, Paris, France"
    latitude: 48.8676
    longitude: 2.3639
    start: "w9 Sun 18:00"
    end: "w10 Mon 04:00"

  - id: "eu-evt-019"
    calendar_id: "sse34geighk20sbt1kuo12r4bg@group.calendar.google.com"
    title: "Salsa on the Beach – Barcelona"
    description: "Barefoot salsa on Barceloneta. Sunset session with live percussion."
    location: "Platja de la Barceloneta, Barcelona, Spain"
    latitude: 41.3784
    longitude: 2.1920
    start: "w10 Sat 19:00"
    end: "w10 Sat 23:00"

  - id: "eu-evt-020"
    calendar_id: "evrpds0rvercm3ugjpgjia2kds@group.calendar.google.com"
    title: "Salsa Night Dubrovnik"
    description: "Dancing in the Old Town. Rooftop terrace with Adriatic views."
    location: "Revelin Fortress, Dubrovnik, Croatia"
    latitude: 42.6407
    longitude: 18.1113
    start: "w8 Sat 21:00"
    end: "w8 Sun 02:00"

  # ═══════════════════════════════════════════════════════════
  #  JULY 2026
  # ═══════════════════════════════════════════════════════════
  - id: "eu-evt-021"
    calendar_id: "sse34geighk20sbt1kuo12r4bg@group.calendar.google.com"
    title: "Budapest Summer Salsa Open"
    description: "Outdoor salsa on the Danube. Ruin bar pre-party from 20:00."
    location: "Szimpla Kert, Kazinczy u. 14, Budapest, Hungary"
    latitude: 47.4965
    longitude: 19.0620
    start: "w11 Sat 20:00"
    end: "w11 Sun 02:00"

  - id: "eu-evt-022"
    calendar_id: "evrpds0rvercm3ugjpgjia2kds@group.calendar.google.com"
    title: "Santorini Salsa Retreat"
    description: "4-day island retreat with workshops, sunset socials, and caldera views."
    location: "Santo Wines, Pyrgos, Santorini, Greece"
    latitude: 36.3730
    longitude: 25.4370
    start: "w12 Thu 10:00"
    end: "w12 Sun 22:00"

  - id: "eu-evt-023"
    calendar_id: "sse34geighk20sbt1kuo12r4bg@group.calendar.google.com"
    title: "Salsa Fuego – London Summer Edition"
    description: "Outdoor terrace party in Shoreditch. BBQ + dancing."
    location: "Rich Mix, 35-47 Bethnal Green Rd, London, UK"
    latitude: 51.5244
    longitude: -0.0725
    start: "w13 Sat 20:00"
    end: "w13 Sun 02:00"

  # ═══════════════════════════════════════════════════════════
  #  AUGUST 2026
  # ═══════════════════════════════════════════════════════════
  - id: "eu-evt-024"
    calendar_id: "sse34geighk20sbt1kuo12r4bg@group.calendar.google.com"
    title: "Salsa al Tramonto – Napoli"
    description: "Open-air dancing on the lungomare with Vesuvius in the background."
    location: "Lungomare Caracciolo, Naples, Italy"
    latitude: 40.8328
    longitude: 14.2350
    start: "w15 Sat 20:00"
    end: "w15 Sun 00:30"

  - id: "eu-evt-025"
    calendar_id: "evrpds0rvercm3ugjpgjia2kds@group.calendar.google.com"
    title: "Porto Salsa & Wine Night"
    description: "Salsa social in the Ribeira district. Port wine tasting + dancing."
    location: "Maus Hábitos, Rua de Passos Manuel 178, Porto, Portugal"
    latitude: 41.1480
    longitude: -8.6060
    start: "w16 Sat 21:00"
    end: "w16 Sun 02:00"

  - id: "eu-evt-026"
    calendar_id: "sse34geighk20sbt1kuo12r4bg@group.calendar.google.com"
    title: "Berlin Open Air Salsa"
    description: "Salsa in the park – Mauerpark edition. Free entry, BYO drinks."
    location: "Mauerpark, Gleimstraße 55, Berlin, Germany"
    latitude: 52.5434
    longitude: 13.4020
    start: "w17 Sat 17:00"
    end: "w17 Sat 22:00"

  - id: "eu-evt-027"
    calendar_id: "evrpds0rvercm3ugjpgjia2kds@group.calendar.google.com"
    title: "Baltic Salsa Nights – Vilnius"
    description: "Monthly social in the Old Town. Rueda de casino workshop at 20:00."
    location: "Salsa Club Vilnius, Vilniaus g. 22, Vilnius, Lithuania"
    latitude: 54.6834
    longitude: 25.2800
    start: "w18 Sat 20:00"
    end: "w18 Sun 01:00"

  # ═══════════════════════════════════════════════════════════
  #  SEPTEMBER 2026
  # ═══════════════════════════════════════════════════════════
  - id: "eu-evt-028"
    calendar_id: "sse34geighk20sbt1kuo12r4bg@group.calendar.google.com"
    title: "Rentrée Salsa – Paris"
    description: "Back-to-school salsa marathon. 12 hours of non-stop dancing."
    location: "La Bellevilloise, 19 Rue Boyer, Paris, France"
    latitude: 48.8686
    longitude: 2.3920
    start: "w20 Sat 14:00"
    end: "w20 Sun 02:00"

  - id: "eu-evt-029"
    calendar_id: "evrpds0rvercm3ugjpgjia2kds@group.calendar.google.com"
    title: "Salsa On2 Intensive – Barcelona"
    description: "Weekend bootcamp with instructor Carlos Vega. Intermediate level."
    location: "Escola de Dansa, Carrer de Balmes 50, Barcelona, Spain"
    latitude: 41.3900
    longitude: 2.1630
    start: "w21 Sat 10:00"
    end: "w21 Sun 17:00"

  - id: "eu-evt-030"
    calendar_id: "sse34geighk20sbt1kuo12r4bg@group.calendar.google.com"
    title: "Thessaloniki Salsa Weekend"
    description: "2-day event on the waterfront. Workshops + social + live music."
    location: "Aristotelous Square, Thessaloniki, Greece"
    latitude: 40.6323
    longitude: 22.9417
    start: "w22 Sat 18:00"
    end: "w22 Sun 23:00"

  # ═══════════════════════════════════════════════════════════
  #  OCTOBER 2026
  # ═══════════════════════════════════════════════════════════
  - id: "eu-evt-031"
    calendar_id: "evrpds0rvercm3ugjpgjia2kds@group.calendar.google.com"
    title: "Salsa Congress – Rome"
    description: "3-day Italian salsa congress. International artists & shows."
    location: "Auditorium Parco della Musica, Viale Pietro de Coubertin 30, Rome, Italy"
    latitude: 41.9280
    longitude: 12.4740
    start: "w24 Fri 18:00"
    end: "w24 Sun 23:00"

  - id: "eu-evt-032"
    calendar_id: "sse34geighk20sbt1kuo12r4bg@group.calendar.google.com"
    title: "Amsterdam Latin Dance Weekend"
    description: "Salsa, bachata & kizomba. 3 rooms, 20 workshops, nonstop socials."
    location: "Club Salsa, Leidseplein 12, Amsterdam, Netherlands"
    latitude: 52.3640
    longitude: 4.8828
    start: "w26 Fri 19:00"
    end: "w26 Sun 03:00"

  - id: "eu-evt-033"
    calendar_id: "sse34geighk20sbt1kuo12r4bg@group.calendar.google.com"
    title: "Salsa Noche – Madrid"
    description: "Salsa night in the heart of Malasaña. Mojitos & mambo."
    location: "Café Central, Plaza del Ángel 10, Madrid, Spain"
    latitude: 40.4150
    longitude: -3.7003
    start: "w27 Sat 22:00"
    end: "w27 Sun 03:00"

  # ═══════════════════════════════════════════════════════════
  #  NOVEMBER 2026
  # ═══════════════════════════════════════════════════════════
  - id: "eu-evt-034"
    calendar_id: "evrpds0rvercm3ugjpgjia2kds@group.calendar.google.com"
    title: "Salsa & Jazz – Paris"
    description: "Salsa meets jazz at Le Duc des Lombards. Live band + social."
    location: "Le Duc des Lombards, 42 Rue des Lombards, Paris, France"
    latitude: 48.8602
    longitude: 2.3487
    start: "w29 Sat 20:00"
    end: "w29 Sun 01:00"

  - id: "eu-evt-035"
    calendar_id: "sse34geighk20sbt1kuo12r4bg@group.calendar.google.com"
    title: "London Salsa Marathon"
    description: "24-hour non-stop dancing. Shifts of DJs from around Europe."
    location: "The Coronet Theatre, 28 New Kent Rd, London, UK"
    latitude: 51.4953
    longitude: -0.0982
    start: "w30 Sat 12:00"
    end: "w30 Sun 12:00"

  - id: "eu-evt-036"
    calendar_id: "evrpds0rvercm3ugjpgjia2kds@group.calendar.google.com"
    title: "Budapest Autumn Social"
    description: "Cozy indoor salsa in a historic bath house. Thermal pool after-party."
    location: "Rudas Baths, Döbrentei tér 9, Budapest, Hungary"
    latitude: 47.4870
    longitude: 19.0460
    start: "w31 Sat 20:00"
    end: "w31 Sun 02:00"

  # ═══════════════════════════════════════════════════════════
  #  DECEMBER 2026
  # ═══════════════════════════════════════════════════════════
  - id: "eu-evt-037"
    calendar_id: "sse34geighk20sbt1kuo12r4bg@group.calendar.google.com"
    title: "Christmas Salsa Ball – Vienna"
    description: "Formal salsa gala in a Viennese palace. Black tie optional."
    location: "Palais Ferstel, Strauchgasse 4, Vienna, Austria"
    latitude: 48.2115
    longitude: 16.3660
    start: "w34 Sat 19:00"
    end: "w34 Sun 01:00"

  - id: "eu-evt-038"
    calendar_id: "evrpds0rvercm3ugjpgjia2kds@group.calendar.google.com"
    title: "Salsa de Navidad – Seville"
    description: "Flamenco meets salsa in Andalucía. Tapas + dancing in the barrio."
    location: "La Carbonería, Calle Céspedes 21, Seville, Spain"
    latitude: 37.3886
    longitude: -5.9870
    start: "w35 Sat 21:00"
    end: "w35 Sun 03:00"

  - id: "eu-evt-039"
    calendar_id: "sse34geighk20sbt1kuo12r4bg@group.calendar.google.com"
    title: "NYE Salsa Countdown – Lisbon"
    description: "Ring in 2027 with salsa by the river. Fireworks at midnight."
    location: "Doca de Santo Amaro, Lisbon, Portugal"
    latitude: 38.7050
    longitude: -9.1650
    start: "w37 Thu 22:00"
    end: "w37 Fri 05:00"
